$GPRMC,072845.000,A,5106.5396,N,01703.6373,E,0.11,272.73,261017,,,A*6D
$GPGGA,072846.000,5106.5394,N,01703.6373,E,1,5,1.84,145.6,M,42.6,M,,*50
$GPGSA,A,3,21,18,15,27,26,,,,,,,,2.05,1.84,0.90*0E
$GPGSV,4,1,13,27,73,294,27,18,59,094,31,10,54,161,,16,49,217,*77
$GPGSV,4,2,13,21,40,073,31,08,34,299,,26,26,192,16,33,23,219,*77
$GPGSV,4,3,13,15,17,053,17,20,10,044,,07,09,309,,13,08,024,*75
$GPGSV,4,4,13,30,05,337,*4A
$GPRMC,072846.000,A,5106.5394,N,01703.6373,E,0.11,272.73,261017,,,A*6C
$GPGGA,072847.000,5106.5392,N,01703.6368,E,1,5,1.84,145.5,M,42.6,M,,*5E
$GPRMC,072847.000,A,5106.5392,N,01703.6368,E,0.11,272.73,261017,,,A*61
$GPGGA,072848.000,5106.5397,N,01703.6359,E,1,5,1.84,145.3,M,42.6,M,,*50
$GPRMC,072848.000,A,5106.5397,N,01703.6359,E,0.11,272.73,261017,,,A*69
$GPGGA,072849.000,5106.5395,N,01703.6354,E,1,5,1.84,145.3,M,42.6,M,,*5E
$GPGSA,A,3,21,18,15,27,26,,,,,,,,2.05,1.84,0.90*0E
$GPGSV,3,1,12,27,73,294,27,18,59,094,31,10,55,161,,16,49,217,*70
$GPGSV,3,2,12,21,40,073,31,08,35,299,,26,26,192,16,15,17,053,16*78
$GPGSV,3,3,12,20,10,044,,07,09,309,,13,08,024,,30,05,337,*70
$GPRMC,072849.000,A,5106.5395,N,01703.6354,E,0.11,265.27,261017,,,A*60
$GPGGA,072850.000,5106.5399,N,01703.6350,E,1,5,1.84,145.0,M,42.6,M,,*5D
$GPRMC,072850.000,A,5106.5399,N,01703.6350,E,1.95,272.69,261017,,,A*61
$GPGGA,072851.000,5106.5402,N,01703.6345,E,1,4,2.94,144.7,M,42.6,M,,*58
$GPRMC,072851.000,A,5106.5402,N,01703.6345,E,2.05,276.33,261017,,,A*60
$GPGGA,072852.000,5106.5401,N,01703.6351,E,1,5,2.27,144.4,M,42.6,M,,*57
$GPGSA,A,3,21,18,15,27,07,,,,,,,,2.47,2.27,0.98*09
$GPGSV,3,1,12,27,73,294,26,18,59,094,31,10,55,161,,16,49,217,*71
$GPGSV,3,2,12,21,40,073,30,08,35,299,,26,26,192,,15,17,053,15*7D
$GPGSV,3,3,12,20,10,044,,07,09,309,20,13,08,024,,30,05,337,*72
$GPRMC,072852.000,A,5106.5401,N,01703.6351,E,1.61,276.33,261017,,,A*64
$GPGGA,072853.000,5106.5398,N,01703.6361,E,1,5,2.27,143.9,M,42.6,M,,*58
$GPRMC,072853.000,A,5106.5398,N,01703.6361,E,1.61,276.33,261017,,,A*61
$GPGGA,072854.000,5106.5408,N,01703.6357,E,1,4,2.95,143.5,M,42.6,M,,*50
$GPRMC,072854.000,A,5106.5408,N,01703.6357,E,1.61,276.33,261017,,,A*6D
$GPGGA,072855.000,5106.5418,N,01703.6355,E,1,5,2.43,143.1,M,42.6,M,,*5C
$GPGSA,A,3,21,18,15,27,08,,,,,,,,2.63,2.43,0.99*03
$GPGSV,4,1,13,27,73,294,26,18,59,094,31,10,55,161,,16,49,217,*77
$GPGSV,4,2,13,21,40,073,30,08,35,299,17,26,26,192,,15,17,053,15*7D
$GPGSV,4,3,13,44,16,124,,20,10,044,,07,09,309,,13,08,024,*77
$GPGSV,4,4,13,30,05,337,*4A
$GPRMC,072855.000,A,5106.5418,N,01703.6355,E,1.61,276.33,261017,,,A*6F
$GPGGA,072856.000,5106.5428,N,01703.6359,E,1,5,2.43,142.7,M,42.6,M,,*57
$GPRMC,072856.000,A,5106.5428,N,01703.6359,E,1.61,276.33,261017,,,A*63
$GPGGA,072857.000,5106.5432,N,01703.6366,E,1,5,2.43,142.3,M,42.6,M,,*55
$GPRMC,072857.000,A,5106.5432,N,01703.6366,E,1.61,276.33,261017,,,A*65
$GPGGA,072858.000,5106.5445,N,01703.6368,E,1,6,2.02,141.9,M,42.6,M,,*5B
$GPGSA,A,3,21,18,13,15,27,08,,,,,,,2.25,2.02,1.00*07
$GPGSV,4,1,13,27,73,294,26,18,59,094,31,10,55,161,,16,49,217,*77
$GPGSV,4,2,13,21,40,073,30,08,35,299,18,26,26,192,,15,17,053,16*71
$GPGSV,4,3,13,44,16,124,,20,10,044,,07,09,309,,13,08,024,19*7F
$GPGSV,4,4,13,30,05,337,*4A
$GPRMC,072858.000,A,5106.5445,N,01703.6368,E,1.62,331.98,261017,,,A*64
$GPGGA,072859.000,5106.5445,N,01703.6373,E,1,6,2.43,141.5,M,42.6,M,,*59
$GPRMC,072859.000,A,5106.5445,N,01703.6373,E,1.96,336.11,261017,,,A*62
$GPGGA,072900.000,5106.5446,N,01703.6372,E,1,6,2.02,141.5,M,42.6,M,,*53
$GPRMC,072900.000,A,5106.5446,N,01703.6372,E,1.89,336.11,261017,,,A*63
$GPGGA,072901.000,5106.5450,N,01703.6365,E,1,6,2.95,141.2,M,42.6,M,,*5A
$GPGSA,A,3,21,18,13,15,27,08,,,,,,,3.11,2.95,1.00*0F
$GPGSV,4,1,13,27,73,294,26,18,59,094,31,10,55,161,,16,49,217,*77
$GPGSV,4,2,13,21,40,073,30,08,35,299,18,37,31,174,,26,26,192,*76
$GPGSV,4,3,13,15,17,053,17,20,10,044,,07,09,309,,13,08,024,18*7C
$GPGSV,4,4,13,30,05,337,*4A
$GPRMC,072901.000,A,5106.5450,N,01703.6365,E,1.89,336.11,261017,,,A*63
$GPGGA,072902.000,5106.5459,N,01703.6364,E,1,7,2.28,140.9,M,42.6,M,,*5C
$GPRMC,072902.000,A,5106.5459,N,01703.6364,E,1.89,336.11,261017,,,A*68
$GPGGA,072903.000,5106.5461,N,01703.6367,E,1,7,2.27,140.6,M,42.6,M,,*55
$GPRMC,072903.000,A,5106.5461,N,01703.6367,E,1.89,336.11,261017,,,A*61
$GPGGA,072904.000,5106.5454,N,01703.6367,E,1,7,2.28,140.4,M,42.6,M,,*59
$GPGSA,A,3,21,18,13,16,15,27,08,,,,,,2.46,2.28,0.93*06
$GPGSV,4,1,13,27,73,294,26,18,59,094,31,10,55,161,,16,49,217,20*75
$GPGSV,4,2,13,21,40,073,30,08,35,299,18,37,31,174,,26,26,192,*76
$GPGSV,4,3,13,15,17,053,18,20,10,044,,07,09,309,,13,08,024,18*73
$GPGSV,4,4,13,30,05,337,*4A
$GPRMC,072904.000,A,5106.5454,N,01703.6367,E,1.88,336.11,261017,,,A*61
$GPGGA,072905.000,5106.5443,N,01703.6378,E,1,7,2.28,140.1,M,42.6,M,,*55
$GPRMC,072905.000,A,5106.5443,N,01703.6378,E,1.88,336.11,261017,,,A*68
$GPGGA,072906.000,5106.5425,N,01703.6383,E,1,7,2.37,139.9,M,42.6,M,,*5A
$GPRMC,072906.000,A,5106.5425,N,01703.6383,E,1.87,336.11,261017,,,A*60
$GPGGA,072907.000,5106.5418,N,01703.6389,E,1,7,2.36,139.5,M,42.6,M,,*52
$GPGSA,A,3,21,18,13,16,15,27,08,,,,,,3.51,2.36,2.59*0A
$GPGSV,4,1,13,27,73,294,26,18,59,094,31,10,55,161,,16,49,217,20*75
$GPGSV,4,2,13,21,40,073,30,08,35,299,19,37,31,174,,26,26,192,*77
$GPGSV,4,3,13,15,17,053,20,20,10,044,,07,09,309,,13,08,024,19*79
$GPGSV,4,4,13,30,05,337,*4A
$GPRMC,072907.000,A,5106.5418,N,01703.6389,E,1.87,336.11,261017,,,A*65
$GPGGA,072908.000,5106.5412,N,01703.6393,E,1,7,2.28,139.6,M,42.6,M,,*50
$GPRMC,072908.000,A,5106.5412,N,01703.6393,E,1.87,336.11,261017,,,A*6B
$GPGGA,072909.000,5106.5406,N,01703.6393,E,1,7,2.28,139.7,M,42.6,M,,*55
$GPRMC,072909.000,A,5106.5406,N,01703.6393,E,1.87,336.11,261017,,,A*6F
$GPGGA,072910.000,5106.5404,N,01703.6394,E,1,7,2.28,139.5,M,42.6,M,,*5A
$GPGSA,A,3,21,18,13,16,15,27,08,,,,,,2.46,2.28,0.93*06
$GPGSV,4,1,13,27,73,294,26,18,59,094,31,10,55,161,,16,49,217,21*74
$GPGSV,4,2,13,21,40,073,30,08,35,299,19,39,30,169,,26,26,192,*74
$GPGSV,4,3,13,15,17,053,23,20,10,044,,07,09,309,,13,08,024,18*7B
$GPGSV,4,4,13,30,05,337,*4A
$GPRMC,072910.000,A,5106.5404,N,01703.6394,E,1.88,336.11,261017,,,A*6D
$GPGGA,072911.000,5106.5398,N,01703.6394,E,1,7,2.28,139.5,M,42.6,M,,*59
$GPRMC,072911.000,A,5106.5398,N,01703.6394,E,1.88,336.11,261017,,,A*6E
$GPGGA,072912.000,5106.5382,N,01703.6395,E,1,7,2.28,139.6,M,42.6,M,,*53
$GPRMC,072912.000,A,5106.5382,N,01703.6395,E,1.88,336.11,261017,,,A*67
$GPGGA,072913.000,5106.5368,N,01703.6404,E,1,7,2.28,139.7,M,42.6,M,,*58
$GPGSA,A,3,21,18,13,16,15,27,08,,,,,,2.46,2.28,0.93*06
$GPGSV,4,1,13,27,73,294,26,18,59,094,31,10,55,161,,16,49,217,21*74
$GPGSV,4,2,13,21,40,073,30,08,35,299,19,26,26,192,,33,23,219,*78
$GPGSV,4,3,13,15,17,053,24,20,10,044,,07,09,309,,13,08,024,18*7C
$GPGSV,4,4,13,30,05,337,*4A
$GPRMC,072913.000,A,5106.5368,N,01703.6404,E,1.88,336.11,261017,,,A*6D
$GPGGA,072914.000,5106.5355,N,01703.6426,E,1,7,2.28,139.7,M,42.6,M,,*51
$GPRMC,072914.000,A,5106.5355,N,01703.6426,E,1.88,336.11,261017,,,A*64
$GPGGA,072915.000,5106.5352,N,01703.6435,E,1,7,1.46,139.6,M,42.6,M,,*5F
$GPRMC,072915.000,A,5106.5352,N,01703.6435,E,1.88,336.11,261017,,,A*60
$GPGGA,072916.000,5106.5348,N,01703.6439,E,1,8,1.12,139.7,M,42.6,M,,*54
$GPGSA,A,3,21,18,10,13,16,15,27,08,,,,,1.45,1.12,0.91*0F
$GPGSV,4,1,13,27,73,294,27,18,59,094,31,10,55,161,25,16,49,217,21*72
$GPGSV,4,2,13,21,40,073,30,08,35,299,20,26,26,192,,15,17,053,26*79
$GPGSV,4,3,13,44,16,124,,20,10,044,,07,09,309,,13,08,024,18*7E
$GPGSV,4,4,13,30,05,337,*4A
$GPRMC,072916.000,A,5106.5348,N,01703.6439,E,1.88,336.11,261017,,,A*64
$GPGGA,072917.000,5106.5345,N,01703.6444,E,1,8,1.12,139.8,M,42.6,M,,*5D
$GPRMC,072917.000,A,5106.5345,N,01703.6444,E,1.88,336.11,261017,,,A*62
$GPGGA,072918.000,5106.5344,N,01703.6448,E,1,8,1.12,140.0,M,42.6,M,,*59
$GPRMC,072918.000,A,5106.5344,N,01703.6448,E,1.87,336.11,261017,,,A*6F
$GPGGA,072919.000,5106.5338,N,01703.6447,E,1,8,1.12,140.3,M,42.6,M,,*5F
$GPGSA,A,3,21,18,10,13,16,15,27,08,,,,,1.45,1.12,0.91*0F
$GPGSV,4,1,13,27,73,294,27,18,59,094,31,10,55,161,24,16,49,217,19*78
$GPGSV,4,2,13,21,40,073,30,08,35,299,20,26,26,192,,15,17,053,27*78
$GPGSV,4,3,13,44,16,124,,20,10,044,,07,09,309,,13,08,024,18*7E
$GPGSV,4,4,13,30,05,337,*4A
$GPRMC,072919.000,A,5106.5338,N,01703.6447,E,1.87,336.11,261017,,,A*6A
$GPGGA,072920.000,5106.5331,N,01703.6452,E,1,8,1.12,140.4,M,42.6,M,,*5F
$GPRMC,072920.000,A,5106.5331,N,01703.6452,E,1.88,336.11,261017,,,A*62
$GPGGA,072921.000,5106.5326,N,01703.6456,E,1,8,1.12,140.4,M,42.6,M,,*5C
$GPRMC,072921.000,A,5106.5326,N,01703.6456,E,1.88,336.11,261017,,,A*61
$GPGGA,072922.000,5106.5323,N,01703.6465,E,1,7,1.23,140.4,M,42.6,M,,*57
$GPGSA,A,3,21,18,10,16,15,27,08,,,,,,1.54,1.23,0.93*0D
$GPGSV,4,1,13,27,73,294,27,18,59,094,31,10,55,160,23,16,49,217,18*7F
$GPGSV,4,2,13,21,40,073,30,08,35,299,20,26,26,192,,15,17,053,27*78
$GPGSV,4,3,13,44,16,124,,20,10,044,,07,09,309,,13,08,024,*77
$GPGSV,4,4,13,30,05,337,*4A
$GPRMC,072922.000,A,5106.5323,N,01703.6465,E,1.88,336.11,261017,,,A*67
$GPGGA,072923.000,5106.5324,N,01703.6465,E,1,7,1.23,140.4,M,42.6,M,,*51
$GPRMC,072923.000,A,5106.5324,N,01703.6465,E,1.88,336.11,261017,,,A*61
$GPGGA,072924.000,5106.5324,N,01703.6464,E,1,7,1.24,140.3,M,42.6,M,,*57
$GPRMC,072924.000,A,5106.5324,N,01703.6464,E,1.88,336.11,261017,,,A*67
$GPGGA,072925.000,5106.5324,N,01703.6470,E,1,7,1.23,140.1,M,42.6,M,,*56
$GPGSA,A,3,21,18,10,16,15,27,08,,,,,,1.54,1.23,0.93*0D
$GPGSV,4,1,13,27,73,294,27,18,59,094,31,10,55,160,23,16,49,217,18*7F
$GPGSV,4,2,13,21,40,073,30,08,35,299,21,26,26,192,,15,17,053,27*79
$GPGSV,4,3,13,20,10,044,,07,09,309,,13,08,024,,30,05,337,*76
$GPGSV,4,4,13,36,,,*7E
$GPRMC,072925.000,A,5106.5324,N,01703.6470,E,1.88,336.11,261017,,,A*63
$GPGGA,072926.000,5106.5322,N,01703.6464,E,1,7,1.24,140.0,M,42.6,M,,*50
$GPRMC,072926.000,A,5106.5322,N,01703.6464,E,1.88,336.11,261017,,,A*63
$GPGGA,072927.000,5106.5315,N,01703.6468,E,1,8,1.10,139.9,M,42.6,M,,*56
$GPRMC,072927.000,A,5106.5315,N,01703.6468,E,1.88,336.11,261017,,,A*6A
$GPGGA,072928.000,5106.5309,N,01703.6465,E,1,8,1.10,139.7,M,42.6,M,,*57
$GPGSA,A,3,21,18,10,07,16,15,27,08,,,,,1.42,1.10,0.89*06
$GPGSV,4,1,13,27,73,294,27,18,59,094,31,10,55,160,22,16,48,217,18*7F
$GPGSV,4,2,13,21,40,073,29,08,35,299,21,26,26,192,,15,17,053,26*70
$GPGSV,4,3,13,20,10,044,,07,09,309,24,13,08,024,,30,05,337,*70
$GPGSV,4,4,13,38,,,*70
$GPRMC,072928.000,A,5106.5309,N,01703.6465,E,1.88,336.11,261017,,,A*65
$GPGGA,072929.000,5106.5303,N,01703.6462,E,1,8,1.10,139.6,M,42.6,M,,*5A
$GPRMC,072929.000,A,5106.5303,N,01703.6462,E,1.88,336.11,261017,,,A*69
$GPGGA,072930.000,5106.5302,N,01703.6456,E,1,8,1.10,139.5,M,42.6,M,,*57
$GPRMC,072930.000,A,5106.5302,N,01703.6456,E,1.88,336.11,261017,,,A*67
$GPGGA,072931.000,5106.5293,N,01703.6454,E,1,8,1.11,139.5,M,42.6,M,,*5C
$GPGSA,A,3,21,18,10,07,16,15,27,08,,,,,1.42,1.11,0.89*07
$GPGSV,4,1,13,27,73,294,27,18,59,093,30,10,55,160,22,16,48,217,18*79
$GPGSV,4,2,13,21,40,073,29,08,35,299,21,26,26,192,,15,17,053,26*70
$GPGSV,4,3,13,20,09,044,,07,09,309,19,13,08,024,,30,05,337,*76
$GPGSV,4,4,13,41,,,*7E
$GPRMC,072931.000,A,5106.5293,N,01703.6454,E,1.88,336.11,261017,,,A*6D
$GPGGA,072932.000,5106.5291,N,01703.6448,E,1,8,1.10,139.4,M,42.6,M,,*50
$GPRMC,072932.000,A,5106.5291,N,01703.6448,E,1.88,336.11,261017,,,A*61
$GPGGA,072933.000,5106.5288,N,01703.6447,E,1,8,1.10,139.4,M,42.6,M,,*56
$GPRMC,072933.000,A,5106.5288,N,01703.6447,E,1.88,336.11,261017,,,A*67
$GPGGA,072934.000,5106.5283,N,01703.6446,E,1,8,1.10,139.4,M,42.6,M,,*5B
$GPGSA,A,3,21,18,10,07,16,15,27,08,,,,,1.42,1.10,0.89*06
$GPGSV,4,1,13,27,73,294,27,18,59,093,29,10,55,160,21,16,48,217,19*73
$GPGSV,4,2,13,21,40,074,28,08,35,299,20,26,26,192,,15,17,053,24*75
$GPGSV,4,3,13,20,09,044,,07,09,309,18,13,08,024,,30,05,337,*77
$GPGSV,4,4,13,43,,,*7C
$GPRMC,072934.000,A,5106.5283,N,01703.6446,E,1.88,336.11,261017,,,A*6A
$GPGGA,072935.000,5106.5278,N,01703.6448,E,1,8,1.10,139.6,M,42.6,M,,*52
$GPRMC,072935.000,A,5106.5278,N,01703.6448,E,1.88,336.11,261017,,,A*61
$GPGGA,072936.000,5106.5271,N,01703.6446,E,1,8,1.10,139.9,M,42.6,M,,*59
$GPRMC,072936.000,A,5106.5271,N,01703.6446,E,1.88,336.11,261017,,,A*65
$GPGGA,072937.000,5106.5269,N,01703.6445,E,1,8,1.11,140.0,M,42.6,M,,*54
$GPGSA,A,3,21,18,10,07,16,15,27,08,,,,,1.42,1.11,0.89*07
$GPGSV,4,1,13,27,73,294,27,18,59,093,29,10,55,160,22,16,48,217,20*7A
$GPGSV,4,2,13,21,40,074,29,08,35,299,20,26,25,192,,15,17,053,26*75
$GPGSV,4,3,13,20,09,044,,07,09,309,17,13,08,024,,30,05,337,*78
$GPGSV,4,4,13,46,,,*79
$GPRMC,072937.000,A,5106.5269,N,01703.6445,E,1.88,336.11,261017,,,A*6E
$GPGGA,072938.000,5106.5270,N,01703.6444,E,1,8,1.11,140.2,M,42.6,M,,*50
$GPRMC,072938.000,A,5106.5270,N,01703.6444,E,1.88,336.11,261017,,,A*68
$GPGGA,072939.000,5106.5272,N,01703.6446,E,1,8,1.10,140.4,M,42.6,M,,*56
$GPRMC,072939.000,A,5106.5272,N,01703.6446,E,1.87,336.11,261017,,,A*66
$GPGGA,072940.000,5106.5275,N,01703.6449,E,1,8,1.11,140.8,M,42.6,M,,*5D
$GPGSA,A,3,21,18,10,07,16,15,27,08,,,,,1.42,1.11,0.89*07
$GPGSV,4,1,13,27,73,293,25,18,59,093,29,10,55,160,22,16,48,217,21*7E
$GPGSV,4,2,13,21,40,074,30,08,35,299,20,26,25,192,,15,17,053,27*7C
$GPGSV,4,3,13,20,09,044,,07,09,309,16,13,08,024,,30,05,337,*79
$GPGSV,4,4,13,49,,,*76
$GPRMC,072940.000,A,5106.5275,N,01703.6449,E,1.87,336.11,261017,,,A*60
$GPGGA,072941.000,5106.5275,N,01703.6448,E,1,8,1.11,140.8,M,42.6,M,,*5D
$GPRMC,072941.000,A,5106.5275,N,01703.6448,E,1.87,336.11,261017,,,A*60
$GPGGA,072942.000,5106.5275,N,01703.6449,E,1,8,1.36,140.8,M,42.6,M,,*5A
$GPRMC,072942.000,A,5106.5275,N,01703.6449,E,1.87,336.11,261017,,,A*62
$GPGGA,072943.000,5106.5276,N,01703.6449,E,1,8,1.36,140.8,M,42.6,M,,*58
$GPGSA,A,3,21,18,10,07,16,15,27,08,,,,,2.40,1.36,1.98*02
$GPGSV,4,1,13,27,73,293,25,18,59,093,29,10,55,160,23,16,48,217,21*7F
$GPGSV,4,2,13,21,40,074,30,08,35,299,19,37,31,174,,26,25,192,*73
$GPGSV,4,3,13,15,17,053,27,20,09,044,,07,09,309,16,13,08,024,*79
$GPGSV,4,4,13,30,06,337,*49
$GPRMC,072943.000,A,5106.5276,N,01703.6449,E,1.87,336.11,261017,,,A*60
$GPGGA,072944.000,5106.5277,N,01703.6448,E,1,8,1.11,140.8,M,42.6,M,,*5A
$GPRMC,072944.000,A,5106.5277,N,01703.6448,E,1.87,336.11,261017,,,A*67
$GPGGA,072945.000,5106.5278,N,01703.6448,E,1,8,1.36,140.8,M,42.6,M,,*51
$GPRMC,072945.000,A,5106.5278,N,01703.6448,E,1.88,336.11,261017,,,A*66
$GPGGA,072946.000,5106.5290,N,01703.6449,E,1,8,1.36,141.0,M,42.6,M,,*5C
$GPGSA,A,3,21,18,10,07,16,15,27,08,,,,,2.40,1.36,1.98*02
$GPGSV,4,1,13,27,73,293,25,18,59,093,27,10,55,160,24,16,48,217,20*77
$GPGSV,4,2,13,21,40,074,30,08,35,299,18,39,30,169,,26,25,192,*71
$GPGSV,4,3,13,15,17,053,29,20,09,044,,07,09,309,16,13,08,024,*77
$GPGSV,4,4,13,30,06,337,*49
$GPRMC,072946.000,A,5106.5290,N,01703.6449,E,1.88,336.11,261017,,,A*62
$GPGGA,072947.000,5106.5296,N,01703.6447,E,1,8,1.36,141.4,M,42.6,M,,*51
$GPRMC,072947.000,A,5106.5296,N,01703.6447,E,1.88,336.11,261017,,,A*6B
$GPGGA,072948.000,5106.5300,N,01703.6448,E,1,8,1.36,141.7,M,42.6,M,,*5C
$GPRMC,072948.000,A,5106.5300,N,01703.6448,E,1.88,336.11,261017,,,A*65
$GPGGA,072949.000,5106.5303,N,01703.6449,E,1,8,1.36,142.2,M,42.6,M,,*59
$GPGSA,A,3,21,18,10,07,16,15,27,08,,,,,2.40,1.36,1.98*02
$GPGSV,4,1,13,27,73,293,26,18,59,093,26,10,55,160,23,16,48,217,20*72
$GPGSV,4,2,13,21,40,074,30,08,35,299,18,26,25,192,,33,23,219,*7D
$GPGSV,4,3,13,15,17,053,28,20,09,044,,07,09,309,16,13,08,024,*76
$GPGSV,4,4,13,30,06,337,*49
$GPRMC,072949.000,A,5106.5303,N,01703.6449,E,1.88,336.11,261017,,,A*66
$GPGGA,072950.000,5106.5305,N,01703.6446,E,1,8,1.36,143.0,M,42.6,M,,*5B
$GPRMC,072950.000,A,5106.5305,N,01703.6446,E,1.88,336.11,261017,,,A*67
$GPGGA,072951.000,5106.5306,N,01703.6445,E,1,8,1.36,143.4,M,42.6,M,,*5E
$GPRMC,072951.000,A,5106.5306,N,01703.6445,E,1.88,336.11,261017,,,A*66
$GPGGA,072952.000,5106.5309,N,01703.6442,E,1,8,1.36,143.6,M,42.6,M,,*57
$GPGSA,A,3,21,18,10,07,16,15,27,08,,,,,2.40,1.36,1.98*02
$GPGSV,4,1,13,27,73,293,26,18,59,093,25,10,55,160,24,16,48,217,20*76
$GPGSV,4,2,13,21,40,074,31,08,35,299,18,26,25,192,,15,17,053,26*77
$GPGSV,4,3,13,20,09,044,,07,09,309,16,13,08,024,,30,06,337,*7A
$GPGSV,4,4,13,34,,,*7C
$GPRMC,072952.000,A,5106.5309,N,01703.6442,E,1.88,336.11,261017,,,A*6D
$GPGGA,072953.000,5106.5311,N,01703.6434,E,1,8,1.36,143.8,M,42.6,M,,*50
$GPRMC,072953.000,A,5106.5311,N,01703.6434,E,1.88,336.11,261017,,,A*64
$GPGGA,072954.000,5106.5314,N,01703.6438,E,1,8,1.36,144.3,M,42.6,M,,*52
$GPRMC,072954.000,A,5106.5314,N,01703.6438,E,1.88,336.11,261017,,,A*6A
$GPGGA,072955.000,5106.5316,N,01703.6438,E,1,8,1.36,144.5,M,42.6,M,,*57
$GPGSA,A,3,21,18,10,07,16,15,27,08,,,,,2.40,1.36,1.98*02
$GPGSV,4,1,13,27,73,293,25,18,59,093,25,10,55,160,23,16,48,217,22*70
$GPGSV,4,2,13,21,40,074,31,08,35,299,18,26,25,192,,15,17,053,26*77
$GPGSV,4,3,13,20,09,044,,07,09,309,16,13,08,024,,30,06,337,*7A
$GPGSV,4,4,13,36,,,*7E
$GPRMC,072955.000,A,5106.5316,N,01703.6438,E,1.88,336.11,261017,,,A*69
$GPGGA,072956.000,5106.5320,N,01703.6440,E,1,8,1.36,144.8,M,42.6,M,,*53
$GPRMC,072956.000,A,5106.5320,N,01703.6440,E,1.88,336.11,261017,,,A*60
$GPGGA,072957.000,5106.5324,N,01703.6440,E,1,8,1.36,145.1,M,42.6,M,,*5E
$GPRMC,072957.000,A,5106.5324,N,01703.6440,E,1.88,336.11,261017,,,A*65
$GPGGA,072958.000,5106.5331,N,01703.6438,E,1,8,1.36,145.4,M,42.6,M,,*5F
$GPGSA,A,3,21,18,10,07,16,15,27,08,,,,,2.40,1.36,1.98*02
$GPGSV,4,1,13,27,73,293,25,18,59,093,26,10,55,160,23,16,48,217,23*72
$GPGSV,4,2,13,21,40,074,31,08,35,299,18,26,25,192,,15,17,052,26*76
$GPGSV,4,3,13,20,09,044,,07,09,309,19,13,08,024,,30,06,337,*75
$GPGSV,4,4,13,40,,,*7F
$GPRMC,072958.000,A,5106.5331,N,01703.6438,E,1.88,336.11,261017,,,A*61
$GPGGA,072959.000,5106.5338,N,01703.6437,E,1,8,1.36,145.8,M,42.6,M,,*54
$GPRMC,072959.000,A,5106.5338,N,01703.6437,E,1.88,336.11,261017,,,A*66
$GPGGA,073000.000,5106.5345,N,01703.6431,E,1,8,1.36,145.9,M,42.6,M,,*5D
$GPRMC,073000.000,A,5106.5345,N,01703.6431,E,1.88,336.11,261017,,,A*6E
$GPGGA,073001.000,5106.5351,N,01703.6428,E,1,8,1.36,146.4,M,42.6,M,,*5F
$GPGSA,A,3,21,18,10,07,16,15,27,08,,,,,2.40,1.36,1.97*0D
$GPGSV,4,1,13,27,73,293,24,18,59,093,27,10,55,160,23,16,48,216,23*73
$GPGSV,4,2,13,21,40,074,31,08,35,299,18,26,25,192,,15,17,052,24*74
$GPGSV,4,3,13,20,09,044,,07,09,309,20,13,08,024,,30,06,337,*7F
$GPGSV,4,4,13,41,,,*7E
$GPRMC,073001.000,A,5106.5351,N,01703.6428,E,1.88,336.11,261017,,,A*62
$GPGGA,073002.000,5106.5356,N,01703.6427,E,1,8,1.36,146.8,M,42.6,M,,*58
$GPRMC,073002.000,A,5106.5356,N,01703.6427,E,1.88,336.11,261017,,,A*69
$GPGGA,073003.000,5106.5361,N,01703.6419,E,1,8,1.36,147.0,M,42.6,M,,*59
$GPRMC,073003.000,A,5106.5361,N,01703.6419,E,1.88,336.11,261017,,,A*61
$GPGGA,073004.000,5106.5367,N,01703.6419,E,1,8,1.36,147.5,M,42.6,M,,*5D
$GPGSA,A,3,21,18,10,07,16,15,27,08,,,,,2.40,1.36,1.97*0D
$GPGSV,4,1,13,27,73,293,23,18,59,093,27,10,55,160,22,16,48,216,24*72
$GPGSV,4,2,13,21,39,074,31,08,35,299,17,26,25,192,,15,17,052,24*75
$GPGSV,4,3,13,20,09,044,,07,09,309,21,13,08,024,,30,06,337,*7E
$GPGSV,4,4,13,45,,,*7A
$GPRMC,073004.000,A,5106.5367,N,01703.6419,E,1.88,336.11,261017,,,A*60
$GPGGA,073005.000,5106.5372,N,01703.6418,E,1,8,1.10,147.8,M,42.6,M,,*50
$GPRMC,073005.000,A,5106.5372,N,01703.6418,E,1.88,336.11,261017,,,A*64
$GPGGA,073006.000,5106.5380,N,01703.6415,E,1,8,1.36,148.3,M,42.6,M,,*53
$GPRMC,073006.000,A,5106.5380,N,01703.6415,E,1.88,336.11,261017,,,A*67
$GPGGA,073007.000,5106.5387,N,01703.6407,E,1,8,1.36,148.7,M,42.6,M,,*52
$GPGSA,A,3,21,18,10,07,16,15,27,08,,,,,2.40,1.36,1.97*0D
$GPGSV,4,1,13,27,73,293,23,18,59,093,27,10,55,160,23,16,48,216,23*74
$GPGSV,4,2,13,21,39,074,31,08,35,299,17,26,25,192,,15,17,052,24*75
$GPGSV,4,3,13,20,09,044,,07,09,309,20,13,08,024,,30,06,337,*7F
$GPGSV,4,4,13,46,,,*79
$GPRMC,073007.000,A,5106.5387,N,01703.6407,E,1.88,336.11,261017,,,A*62
$GPGGA,073008.000,5106.5395,N,01703.6401,E,1,8,1.11,149.3,M,42.6,M,,*58
$GPRMC,073008.000,A,5106.5395,N,01703.6401,E,1.88,336.11,261017,,,A*68
$GPGGA,073009.000,5106.5403,N,01703.6399,E,1,8,1.11,149.7,M,42.6,M,,*53
$GPRMC,073009.000,A,5106.5403,N,01703.6399,E,1.88,336.11,261017,,,A*67
$GPGGA,073010.000,5106.5408,N,01703.6399,E,1,8,1.36,150.2,M,42.6,M,,*58
$GPGSA,A,3,21,18,10,07,16,15,27,08,,,,,2.40,1.36,1.97*0D
$GPGSV,4,1,13,27,74,293,23,18,59,093,27,10,55,160,23,16,48,216,23*73
$GPGSV,4,2,13,21,39,074,30,08,35,299,16,26,25,192,,15,17,052,24*75
$GPGSV,4,3,13,20,09,044,,07,09,309,22,13,08,024,,30,06,337,*7D
$GPGSV,4,4,13,42,,,*7D
$GPRMC,073010.000,A,5106.5408,N,01703.6399,E,1.88,336.11,261017,,,A*64
$GPGGA,073011.000,5106.5413,N,01703.6398,E,1,8,1.36,150.7,M,42.6,M,,*57
$GPRMC,073011.000,A,5106.5413,N,01703.6398,E,1.88,336.11,261017,,,A*6E
$GPGGA,073012.000,5106.5415,N,01703.6397,E,1,8,1.36,151.4,M,42.6,M,,*5F
$GPRMC,073012.000,A,5106.5415,N,01703.6397,E,1.88,336.11,261017,,,A*64
$GPGGA,073013.000,5106.5419,N,01703.6394,E,1,8,1.36,151.9,M,42.6,M,,*5C
$GPGSA,A,3,21,18,10,07,16,15,27,08,,,,,2.40,1.36,1.97*0D
$GPGSV,4,1,13,27,74,293,23,18,59,093,27,10,55,160,23,16,48,216,23*73
$GPGSV,4,2,13,21,39,074,30,08,35,299,15,26,25,192,,15,17,052,24*76
$GPGSV,4,3,13,20,09,044,,07,09,309,22,13,08,024,,30,06,337,*7D
$GPGSV,4,4,13,51,,,*7F
$GPRMC,073013.000,A,5106.5419,N,01703.6394,E,1.88,336.11,261017,,,A*6A
$GPGGA,073014.000,5106.5421,N,01703.6392,E,1,8,1.36,152.3,M,42.6,M,,*5F
$GPRMC,073014.000,A,5106.5421,N,01703.6392,E,1.88,336.11,261017,,,A*60
$GPGGA,073015.000,5106.5422,N,01703.6390,E,1,8,1.36,153.0,M,42.6,M,,*5D
$GPRMC,073015.000,A,5106.5422,N,01703.6390,E,1.88,336.11,261017,,,A*60
$GPGGA,073016.000,5106.5423,N,01703.6389,E,1,8,1.36,153.6,M,42.6,M,,*51
$GPGSA,A,3,21,18,10,07,16,15,27,08,,,,,2.39,1.36,1.97*03
$GPGSV,4,1,13,27,74,293,24,18,59,093,27,10,55,160,24,16,48,216,22*72
$GPGSV,4,2,13,21,39,074,31,08,35,299,15,26,25,192,,15,17,052,25*76
$GPGSV,4,3,13,20,09,044,,07,09,309,22,13,08,024,,30,06,337,*7D
$GPGSV,4,4,13,48,,,*77
$GPRMC,073016.000,A,5106.5423,N,01703.6389,E,1.88,336.11,261017,,,A*6A
$GPGGA,073017.000,5106.5425,N,01703.6391,E,1,8,1.36,154.0,M,42.6,M,,*5E
$GPRMC,073017.000,A,5106.5425,N,01703.6391,E,1.88,336.11,261017,,,A*64
$GPGGA,073018.000,5106.5426,N,01703.6391,E,1,8,1.36,154.5,M,42.6,M,,*57
$GPRMC,073018.000,A,5106.5426,N,01703.6391,E,1.88,336.11,261017,,,A*68
$GPGGA,073019.000,5106.5431,N,01703.6392,E,1,9,1.34,154.7,M,42.6,M,,*52
$GPGSA,A,3,21,18,10,07,16,15,27,08,20,,,,2.29,1.34,1.85*01
$GPGSV,4,1,13,27,74,293,23,18,59,093,27,10,55,160,24,16,48,216,20*77
$GPGSV,4,2,13,21,39,074,31,08,35,299,14,26,25,192,,15,17,052,24*76
$GPGSV,4,3,13,20,09,044,20,07,09,309,22,13,08,024,,30,06,337,*7F
$GPGSV,4,4,13,35,,,*7D
$GPRMC,073019.000,A,5106.5431,N,01703.6392,E,1.88,336.11,261017,,,A*6C
$GPGGA,073020.000,5106.5433,N,01703.6391,E,1,9,1.34,154.8,M,42.6,M,,*56
$GPRMC,073020.000,A,5106.5433,N,01703.6391,E,1.88,336.11,261017,,,A*67
$GPGGA,073021.000,5106.5435,N,01703.6393,E,1,9,1.34,155.3,M,42.6,M,,*59
$GPRMC,073021.000,A,5106.5435,N,01703.6393,E,1.88,336.11,261017,,,A*62
$GPGGA,073022.000,5106.5435,N,01703.6391,E,1,9,1.34,155.9,M,42.6,M,,*52
$GPGSA,A,3,21,18,10,07,16,15,27,08,20,,,,2.29,1.34,1.85*01
$GPGSV,4,1,13,27,74,293,24,18,59,093,27,10,55,160,23,16,48,216,18*7C
$GPGSV,4,2,13,21,39,074,31,08,35,299,15,37,31,174,,26,25,192,*70
$GPGSV,4,3,13,15,17,052,23,20,09,044,18,07,09,309,22,13,08,024,*72
$GPGSV,4,4,13,30,06,337,*49
$GPRMC,073022.000,A,5106.5435,N,01703.6391,E,1.88,336.11,261017,,,A*63
$GPGGA,073023.000,5106.5438,N,01703.6391,E,1,9,1.34,156.4,M,42.6,M,,*50
$GPRMC,073023.000,A,5106.5438,N,01703.6391,E,1.88,336.11,261017,,,A*6F
$GPGGA,073024.000,5106.5439,N,01703.6389,E,1,9,1.34,156.6,M,42.6,M,,*5D
$GPRMC,073024.000,A,5106.5439,N,01703.6389,E,1.88,336.11,261017,,,A*60
$GPGGA,073025.000,5106.5442,N,01703.6391,E,1,9,1.34,157.0,M,42.6,M,,*5E
$GPGSA,A,3,21,18,10,07,16,15,27,08,20,,,,2.29,1.34,1.85*01
$GPGSV,4,1,13,27,74,293,23,18,59,093,26,10,55,160,23,16,48,216,19*7B
$GPGSV,4,2,13,21,39,074,31,08,35,299,15,39,30,169,,26,25,192,*73
$GPGSV,4,3,13,15,17,052,24,20,09,044,18,07,09,309,22,13,08,024,*75
$GPGSV,4,4,13,30,06,337,*49
$GPRMC,073025.000,A,5106.5442,N,01703.6391,E,1.88,336.11,261017,,,A*64
$GPGGA,073026.000,5106.5442,N,01703.6390,E,1,9,1.34,157.8,M,42.6,M,,*54
$GPRMC,073026.000,A,5106.5442,N,01703.6390,E,1.88,336.11,261017,,,A*66
$GPGGA,073027.000,5106.5442,N,01703.6386,E,1,9,1.34,158.0,M,42.6,M,,*55
$GPRMC,073027.000,A,5106.5442,N,01703.6386,E,1.88,336.11,261017,,,A*60
$GPGGA,073028.000,5106.5439,N,01703.6382,E,1,9,1.05,158.4,M,42.6,M,,*54
$GPGSA,A,3,21,18,10,07,16,15,27,08,20,,,,1.37,1.05,0.88*03
$GPGSV,4,1,13,27,74,293,24,18,59,093,26,10,55,160,23,16,48,216,20*76
$GPGSV,4,2,13,21,39,074,31,08,35,299,14,39,30,169,,26,25,192,*72
$GPGSV,4,3,13,15,17,052,24,20,09,044,18,07,09,309,19,13,08,024,*7D
$GPGSV,4,4,13,30,06,337,*49
$GPRMC,073028.000,A,5106.5439,N,01703.6382,E,1.88,336.11,261017,,,A*67
$GPGGA,073029.000,5106.5437,N,01703.6380,E,1,9,1.05,159.0,M,42.6,M,,*5C
$GPRMC,073029.000,A,5106.5437,N,01703.6380,E,1.88,336.11,261017,,,A*6A
$GPGGA,073030.000,5106.5435,N,01703.6377,E,1,8,1.13,159.4,M,42.6,M,,*5C
$GPRMC,073030.000,A,5106.5435,N,01703.6377,E,1.88,336.11,261017,,,A*68
$GPGGA,073031.000,5106.5435,N,01703.6375,E,1,8,1.14,159.8,M,42.6,M,,*54
$GPGSA,A,3,21,18,10,07,16,15,27,20,,,,,1.44,1.14,0.89*0E
$GPGSV,4,1,13,27,74,293,24,18,59,093,26,10,55,160,23,16,48,216,21*77
$GPGSV,4,2,13,21,39,074,31,08,35,299,,26,25,192,,33,23,219,*7B
$GPGSV,4,3,13,15,17,052,24,20,09,044,18,07,09,309,21,13,08,024,*76
$GPGSV,4,4,13,30,06,337,*49
$GPRMC,073031.000,A,5106.5435,N,01703.6375,E,1.88,336.11,261017,,,A*6B
$GPGGA,073032.000,5106.5433,N,01703.6373,E,1,8,1.13,160.5,M,42.6,M,,*57
$GPRMC,073032.000,A,5106.5433,N,01703.6373,E,1.88,336.11,261017,,,A*68
$GPGGA,073033.000,5106.5433,N,01703.6374,E,1,9,1.05,161.1,M,42.6,M,,*52
$GPRMC,073033.000,A,5106.5433,N,01703.6374,E,1.88,336.11,261017,,,A*6E
$GPGGA,073034.000,5106.5434,N,01703.6374,E,1,9,1.05,161.6,M,42.6,M,,*55
$GPGSA,A,3,21,18,10,07,16,15,27,08,20,,,,1.37,1.05,0.88*03
$GPGSV,4,1,13,27,74,293,24,18,59,092,25,10,55,160,21,16,48,216,21*77
$GPGSV,4,2,13,21,39,074,30,08,35,299,14,37,31,174,,26,25,192,*70
$GPGSV,4,3,13,15,17,052,24,20,09,044,17,07,09,309,21,13,08,024,*79
$GPGSV,4,4,13,30,06,337,*49
$GPRMC,073034.000,A,5106.5434,N,01703.6374,E,1.88,336.11,261017,,,A*6E
$GPGGA,073035.000,5106.5436,N,01703.6373,E,1,9,1.34,162.0,M,42.6,M,,*56
$GPRMC,073035.000,A,5106.5436,N,01703.6373,E,1.88,336.11,261017,,,A*6A
$GPGGA,073036.000,5106.5435,N,01703.6370,E,1,9,1.34,162.4,M,42.6,M,,*51
$GPRMC,073036.000,A,5106.5435,N,01703.6370,E,1.88,336.11,261017,,,A*69
$GPGGA,073037.000,5106.5438,N,01703.6371,E,1,10,0.91,162.8,M,42.6,M,,*66
$GPGSA,A,3,21,18,10,07,16,15,27,08,20,26,,,1.61,0.91,1.33*09
$GPGSV,4,1,13,27,74,293,23,18,59,092,26,10,55,160,20,16,48,216,20*73
$GPGSV,4,2,13,21,39,074,30,08,35,299,14,39,30,169,,26,25,192,20*71
$GPGSV,4,3,13,15,17,052,23,20,09,044,16,07,09,309,20,13,08,024,*7E
$GPGSV,4,4,13,30,06,337,*49
$GPRMC,073037.000,A,5106.5438,N,01703.6371,E,1.88,336.11,261017,,,A*64
$GPGGA,073038.000,5106.5440,N,01703.6375,E,1,9,1.02,163.4,M,42.6,M,,*5C
$GPRMC,073038.000,A,5106.5440,N,01703.6375,E,1.88,336.11,261017,,,A*60
$GPGGA,073039.000,5106.5443,N,01703.6375,E,1,10,0.91,163.7,M,42.6,M,,*6E
$GPRMC,073039.000,A,5106.5443,N,01703.6375,E,1.88,336.11,261017,,,A*62
$GPGGA,073040.000,5106.5446,N,01703.6371,E,1,10,0.91,163.9,M,42.6,M,,*6F
$GPGSA,A,3,21,18,10,07,16,15,27,08,20,26,,,1.61,0.91,1.33*09
$GPGSV,4,1,13,27,74,293,22,18,59,092,27,10,55,160,21,16,48,216,20*72
$GPGSV,4,2,13,21,39,074,30,08,35,299,16,26,25,192,20,33,23,219,*7F
$GPGSV,4,3,13,15,17,052,21,20,09,044,16,07,09,309,18,13,08,024,*77
$GPGSV,4,4,13,30,06,337,*49
$GPRMC,073040.000,A,5106.5446,N,01703.6371,E,1.88,336.11,261017,,,A*6D
$GPGGA,073041.000,5106.5449,N,01703.6372,E,1,10,0.91,164.2,M,42.6,M,,*6E
$GPRMC,073041.000,A,5106.5449,N,01703.6372,E,1.88,336.11,261017,,,A*60
$GPGGA,073042.000,5106.5456,N,01703.6368,E,1,10,0.91,164.4,M,42.6,M,,*6E
$GPRMC,073042.000,A,5106.5456,N,01703.6368,E,1.88,336.11,261017,,,A*66
$GPGGA,073043.000,5106.5461,N,01703.6365,E,1,10,0.86,164.8,M,42.6,M,,*6C
$GPGSA,A,3,21,18,10,07,16,15,27,08,20,26,,,1.17,0.86,0.80*07
$GPGSV,4,1,13,27,74,293,23,18,59,092,27,10,55,160,20,16,48,216,18*79
$GPGSV,4,2,13,21,39,074,29,08,35,299,15,26,25,192,20,15,17,052,20*78
$GPGSV,4,3,13,44,16,124,,20,09,044,16,07,09,309,15,13,08,024,*7C
$GPGSV,4,4,13,30,06,337,*49
$GPRMC,073043.000,A,5106.5461,N,01703.6365,E,1.88,336.11,261017,,,A*6E
$GPGGA,073044.000,5106.5466,N,01703.6359,E,1,10,0.86,165.2,M,42.6,M,,*68
$GPRMC,073044.000,A,5106.5466,N,01703.6359,E,1.88,336.11,261017,,,A*61
$GPGGA,073045.000,5106.5471,N,01703.6347,E,1,10,0.86,165.6,M,42.6,M,,*64
$GPRMC,073045.000,A,5106.5471,N,01703.6347,E,1.88,336.11,261017,,,A*69
$GPGGA,073046.000,5106.5474,N,01703.6347,E,1,9,1.01,166.0,M,42.6,M,,*51
$GPGSA,A,3,21,18,10,16,15,27,08,20,26,,,,1.31,1.01,0.83*09
$GPGSV,4,1,13,27,74,293,23,18,59,092,28,10,55,160,21,16,48,216,18*77
$GPGSV,4,2,13,21,39,074,29,08,35,299,16,26,25,192,20,15,17,052,22*79
$GPGSV,4,3,13,20,09,044,16,07,09,309,,13,08,024,,30,06,336,*7B
$GPGSV,4,4,13,36,,,*7E
$GPRMC,073046.000,A,5106.5474,N,01703.6347,E,1.88,336.11,261017,,,A*6F
$GPGGA,073047.000,5106.5476,N,01703.6347,E,1,9,1.01,166.6,M,42.6,M,,*54
$GPRMC,073047.000,A,5106.5476,N,01703.6347,E,1.88,336.11,261017,,,A*6C
$GPGGA,073048.000,5106.5479,N,01703.6346,E,1,9,1.01,167.4,M,42.6,M,,*56
$GPRMC,073048.000,A,5106.5479,N,01703.6346,E,1.88,336.11,261017,,,A*6D
$GPGGA,073049.000,5106.5483,N,01703.6344,E,1,9,1.01,168.0,M,42.6,M,,*5B
$GPGSA,A,3,21,18,10,16,15,27,08,20,26,,,,1.31,1.01,0.83*09
$GPGSV,4,1,13,27,74,293,23,18,59,092,28,10,55,160,21,16,48,216,15*7A
$GPGSV,4,2,13,21,39,074,29,08,35,299,16,26,25,192,21,15,17,052,22*78
$GPGSV,4,3,13,20,09,044,15,07,09,309,,13,08,024,,30,06,336,*78
$GPGSV,4,4,13,38,,,*70
$GPRMC,073049.000,A,5106.5483,N,01703.6344,E,1.88,336.11,261017,,,A*6B
$GPGGA,073050.000,5106.5487,N,01703.6341,E,1,10,0.86,168.6,M,42.6,M,,*62
$GPRMC,073050.000,A,5106.5487,N,01703.6341,E,1.88,336.11,261017,,,A*62
$GPGGA,073051.000,5106.5493,N,01703.6336,E,1,10,0.86,169.2,M,42.6,M,,*63
$GPRMC,073051.000,A,5106.5493,N,01703.6336,E,1.88,336.11,261017,,,A*66
$GPGGA,073052.000,5106.5497,N,01703.6332,E,1,10,0.86,169.9,M,42.6,M,,*6B
$GPGSA,A,3,21,18,10,07,16,15,27,08,20,26,,,1.17,0.86,0.80*07
$GPGSV,4,1,13,27,74,293,22,18,59,092,28,10,55,160,22,16,48,216,16*7B
$GPGSV,4,2,13,21,39,074,29,08,35,299,16,26,25,192,21,15,17,052,23*79
$GPGSV,4,3,13,20,09,044,16,07,09,309,21,13,08,024,,30,06,336,*78
$GPGSV,4,4,13,41,,,*7E
$GPRMC,073052.000,A,5106.5497,N,01703.6332,E,1.88,336.11,261017,,,A*65
$GPGGA,073053.000,5106.5502,N,01703.6326,E,1,10,0.86,170.6,M,42.6,M,,*65
$GPRMC,073053.000,A,5106.5502,N,01703.6326,E,1.88,336.11,261017,,,A*6C
$GPGGA,073054.000,5106.5507,N,01703.6321,E,1,10,0.86,171.5,M,42.6,M,,*62
$GPRMC,073054.000,A,5106.5507,N,01703.6321,E,1.88,336.11,261017,,,A*69
$GPGGA,073055.000,5106.5510,N,01703.6317,E,1,10,0.86,172.2,M,42.6,M,,*64
$GPGSA,A,3,21,18,10,07,16,15,27,08,20,26,,,1.17,0.86,0.80*07
$GPGSV,4,1,13,27,74,293,23,18,59,092,28,10,55,160,22,16,48,216,16*7A
$GPGSV,4,2,13,21,39,074,28,08,36,299,15,26,25,192,21,15,17,052,22*79
$GPGSV,4,3,13,20,09,044,16,07,09,308,20,13,08,024,,30,06,336,*78
$GPGSV,4,4,13,43,,,*7C
$GPRMC,073055.000,A,5106.5510,N,01703.6317,E,1.88,336.11,261017,,,A*6B
$GPGGA,073056.000,5106.5512,N,01703.6316,E,1,10,0.86,172.8,M,42.6,M,,*6E
$GPRMC,073056.000,A,5106.5512,N,01703.6316,E,1.88,336.11,261017,,,A*6B
$GPGGA,073057.000,5106.5513,N,01703.6312,E,1,10,0.86,173.5,M,42.6,M,,*66
$GPRMC,073057.000,A,5106.5513,N,01703.6312,E,1.88,336.11,261017,,,A*6F
$GPGGA,073058.000,5106.5511,N,01703.6308,E,1,10,0.86,174.6,M,42.6,M,,*64
$GPGSA,A,3,21,18,10,07,16,15,27,08,20,26,,,1.17,0.86,0.80*07
$GPGSV,4,1,13,27,74,293,24,18,59,092,29,10,56,160,22,16,48,216,16*7F
$GPGSV,4,2,13,21,39,074,29,08,36,299,15,26,25,192,21,15,17,052,20*7A
$GPGSV,4,3,13,20,09,044,17,07,09,308,20,13,08,024,,30,06,336,*79
$GPGSV,4,4,13,46,,,*79
$GPRMC,073058.000,A,5106.5511,N,01703.6308,E,1.88,336.11,261017,,,A*69
$GPGGA,073059.000,5106.5513,N,01703.6310,E,1,10,0.86,175.5,M,42.6,M,,*6C
$GPRMC,073059.000,A,5106.5513,N,01703.6310,E,1.88,336.11,261017,,,A*63
$GPGGA,073100.000,5106.5515,N,01703.6309,E,1,10,0.86,176.0,M,42.6,M,,*69
$GPRMC,073100.000,A,5106.5515,N,01703.6309,E,1.88,336.11,261017,,,A*60
$GPGGA,073101.000,5106.5518,N,01703.6308,E,1,10,0.86,176.2,M,42.6,M,,*66
$GPGSA,A,3,21,18,10,07,16,15,27,08,20,26,,,1.17,0.86,0.80*07
$GPGSV,4,1,13,27,74,293,24,18,59,092,29,10,56,160,20,16,48,216,16*7D
$GPGSV,4,2,13,21,39,074,28,08,36,299,16,26,25,192,20,15,17,052,21*78
$GPGSV,4,3,13,20,09,044,18,07,09,308,21,13,08,023,,30,06,336,*70
$GPGSV,4,4,13,49,,,*76
$GPRMC,073101.000,A,5106.5518,N,01703.6308,E,1.88,336.11,261017,,,A*6D
$GPGGA,073102.000,5106.5520,N,01703.6304,E,1,10,0.86,176.7,M,42.6,M,,*67
$GPRMC,073102.000,A,5106.5520,N,01703.6304,E,1.88,336.11,261017,,,A*69
$GPGGA,073103.000,5106.5521,N,01703.6305,E,1,10,0.86,177.5,M,42.6,M,,*65
$GPRMC,073103.000,A,5106.5521,N,01703.6305,E,1.88,336.11,261017,,,A*68
$GPGGA,073104.000,5106.5522,N,01703.6307,E,1,10,0.86,177.6,M,42.6,M,,*60
$GPGSA,A,3,21,18,10,07,16,15,27,08,20,26,,,1.17,0.86,0.80*07
$GPGSV,4,1,13,27,74,293,24,18,59,092,30,10,56,160,21,16,48,216,16*74
$GPGSV,4,2,13,21,39,074,28,08,36,299,16,37,31,174,,26,25,192,19*70
$GPGSV,4,3,13,15,17,052,21,20,09,044,18,07,09,308,21,13,08,023,*75
$GPGSV,4,4,13,30,06,336,*48
$GPRMC,073104.000,A,5106.5522,N,01703.6307,E,1.88,336.11,261017,,,A*6E
$GPGGA,073105.000,5106.5522,N,01703.6306,E,1,10,0.86,177.9,M,42.6,M,,*6F
$GPRMC,073105.000,A,5106.5522,N,01703.6306,E,1.88,336.11,261017,,,A*6E
$GPGGA,073106.000,5106.5520,N,01703.6306,E,1,10,0.86,178.3,M,42.6,M,,*6B
$GPRMC,073106.000,A,5106.5520,N,01703.6306,E,1.88,336.11,261017,,,A*6F
